[
	{
		"districtId": "9aa675c4-8977-4d6a-8cc3-5dc08f8ba0e3",
		"warehouseId": "e1839e0b-57a0-472c-b29d-8d57e256ef32",
		"name": "Los Gatos District",
		"address1": "53 Lakeland Hill",
		"address2": "",
		"city": "Los Gatos",
		"state": "CA",
		"postalCode": "95031",
		"salesTax": 0.090,
		"yearToDateBalance": 0.00,
		"nextOrderId": "",
		"latitude": 37.235808,
		"longitude": -121.962375,
		"documentType": "district"
	},
	{
		"districtId": "813f0a46-ff72-4b3a-8834-08f166056bea",
		"warehouseId": "e1839e0b-57a0-472c-b29d-8d57e256ef32",
		"name": "Holy City District",
		"address1": "51 Clarendon Trail",
		"address2": "",
		"city": "Holy City",
		"state": "CA",
		"postalCode": "95026",
		"salesTax": 0.075,
		"yearToDateBalance": 0.00,
		"nextOrderId": "",
		"latitude": 37.1568900,
		"longitude": -121.9788500,
		"documentType": "district"
	},
	{
		"districtId": "887415de-415c-4a26-8e4f-ebc999c36b91",
		"warehouseId": "e1839e0b-57a0-472c-b29d-8d57e256ef32",
		"name": "Redwood Estates District",
		"address1": "64975 Kenwood Pass",
		"address2": "",
		"city": "Redwood Estates",
		"state": "CA",
		"postalCode": "95044",
		"salesTax": 0.0913,
		"yearToDateBalance": 0.00,
		"nextOrderId": "",
		"latitude": 37.1563349,
		"longitude": -121.9866258,
		"documentType": "district"
	},
	{
		"districtId": "f65d0321-6f3b-412f-8ec0-21e6e84f6493",
		"warehouseId": "e1839e0b-57a0-472c-b29d-8d57e256ef32",
		"name": "New Almaden District",
		"address1": "2445 Basil Street",
		"address2": "",
		"city": "New Almaden",
		"state": "CA",
		"postalCode": "95042",
		"salesTax": 0.09125,
		"yearToDateBalance": 0.00,
		"nextOrderId": "",
		"latitude": 37.1771,
		"longitude": -121.8207,
		"documentType": "district"
	},
	{
		"districtId": "07238d47-c4d7-46ed-9343-2a7b63dc7416",
		"warehouseId": "e1839e0b-57a0-472c-b29d-8d57e256ef32",
		"name": "San Jose District",
		"address1": "139 Orin Junction",
		"address2": "",
		"city": "San Jose",
		"state": "CA",
		"postalCode": "95141",
		"salesTax": 0.0938,
		"yearToDateBalance": 0.00,
		"nextOrderId": "",
		"latitude": 37.3338,
		"longitude": -121.8894,
		"documentType": "district"
	},
	{
		"districtId": "9a1f38a5-ac07-4eb2-8443-ae217666c1a0",
		"warehouseId": "e1839e0b-57a0-472c-b29d-8d57e256ef32",
		"name": "Boulder Creek District",
		"address1": "14 Old Gate Terrace",
		"address2": "",
		"city": "Boulder Creek",
		"state": "CA",
		"postalCode": "95006",
		"salesTax": 0.0900,
		"yearToDateBalance": 0.00,
		"nextOrderId": "",
		"latitude": 37.1547,
		"longitude": -122.1365,
		"documentType": "district"
	},
	{
		"districtId": "e1959179-3ff0-4f7e-86fc-6d9b0a032602",
		"warehouseId": "e1839e0b-57a0-472c-b29d-8d57e256ef32",
		"name": "Coyote District",
		"address1": "15 Stoughton Drive",
		"address2": "",
		"city": "Coyote",
		"state": "CA",
		"postalCode": "95013",
		"salesTax": 0.0913,
		"yearToDateBalance": 0.00,
		"nextOrderId": "",
		"latitude": 37.2123,
		"longitude": -121.7416,
		"documentType": "district"
	},
	{
		"districtId": "1bccef9b-bd7d-4f11-9583-7bd0096568a2",
		"warehouseId": "e1839e0b-57a0-472c-b29d-8d57e256ef32",
		"name": "Milpitas District",
		"address1": "36914 Oak Park",
		"address2": "",
		"city": "Milpitas",
		"state": "CA",
		"postalCode": "95036",
		"salesTax": 0.0913,
		"yearToDateBalance": 0.00,
		"nextOrderId": "",
		"latitude": 37.424,
		"longitude": -121.906,
		"documentType": "district"
	},
	{
		"districtId": "8f2cfab4-81ba-4b78-94e2-6e7699b318e0",
		"warehouseId": "e1839e0b-57a0-472c-b29d-8d57e256ef32",
		"name": "Loma Mar District",
		"address1": "630 Union Crossing",
		"address2": "",
		"city": "Loma Mar",
		"state": "CA",
		"postalCode": "94021",
		"salesTax": 0.0913,
		"yearToDateBalance": 0.00,
		"nextOrderId": "",
		"latitude": 37.2797,
		"longitude": -122.3148,
		"documentType": "district"
	},
	{
		"districtId": "782ff9ba-ea39-4922-8b09-72b66c8daf3a",
		"warehouseId": "e1839e0b-57a0-472c-b29d-8d57e256ef32",
		"name": "La Honda District",
		"address1": "5 Lien Lane",
		"address2": "",
		"city": "La Honda",
		"state": "CA",
		"postalCode": "94020",
		"salesTax": 0.09375,
		"yearToDateBalance": 0.00,
		"nextOrderId": "",
		"latitude": 37.2726,
		"longitude": -122.2495,
		"documentType": "district"
	}
]