[
	{
		"districtId": "882b43e6-2549-4cac-9809-93c6464f70fd",
		"warehouseId": "711fc3c9-2124-406f-a2a1-e64230584a65",
		"name": "Palos Park District",
		"address1": "32 Johnson Trail",
		"address2": "",
		"city": "Palos Park",
		"state": "IL",
		"postalCode": "60464",
		"salesTax": 0.095,
		"yearToDateBalance": 0.00,
		"nextOrderId": "",
		"latitude": 41.6624,
		"longitude": -87.8521,
		"documentType": "district"
	},
	{
		"districtId": "c9bade8a-a709-46c5-94ef-9f02a2103a03",
		"warehouseId": "711fc3c9-2124-406f-a2a1-e64230584a65",
		"name": "Bolingbrook District",
		"address1": "47885 Gale Court",
		"address2": "",
		"city": "Bolingbrook",
		"state": "IL",
		"postalCode": "60490",
		"salesTax": 0.085,
		"yearToDateBalance": 0.00,
		"nextOrderId": "",
		"latitude": 41.679,
		"longitude": -88.1403,
		"documentType": "district"
	},
	{
		"districtId": "c3d1ee72-4796-45e6-a9f5-57a30f78e616",
		"warehouseId": "711fc3c9-2124-406f-a2a1-e64230584a65",
		"name": "Lemont District",
		"address1": "22 Lyons Junction",
		"address2": "",
		"city": "Lemont",
		"state": "IL",
		"postalCode": "60439",
		"salesTax": 0.0913,
		"yearToDateBalance": 0.00,
		"nextOrderId": "",
		"latitude": 41.7074,
		"longitude": -87.9756,
		"documentType": "district"
	},
	{
		"districtId": "c1527d66-34e7-4b2a-83a3-38f1a0c76e12",
		"warehouseId": "711fc3c9-2124-406f-a2a1-e64230584a65",
		"name": "Worth District",
		"address1": "97 Dunning Way",
		"address2": "",
		"city": "Worth Beach",
		"state": "IL",
		"postalCode": "60482",
		"salesTax": 0.10,
		"yearToDateBalance": 0.00,
		"nextOrderId": "",
		"latitude": 41.6895,
		"longitude": -87.7863,
		"documentType": "district"
	},
	{
		"districtId": "e86e641d-89fc-4c18-905c-99cf915d3b31",
		"warehouseId": "711fc3c9-2124-406f-a2a1-e64230584a65",
		"name": "Palos Hills District",
		"address1": "779 Utah Junction",
		"address2": "",
		"city": "Palos Hills",
		"state": "IL",
		"postalCode": "60465",
		"salesTax": 0.0625,
		"yearToDateBalance": 0.00,
		"nextOrderId": "",
		"latitude": 41.7004,
		"longitude":  -87.8263,
		"documentType": "district"
	},
	{
		"districtId": "af08f55e-f7e2-4e6e-ba2e-b55e8d3bb3ed",
		"warehouseId": "711fc3c9-2124-406f-a2a1-e64230584a65",
		"name": "Chicago Ridge District",
		"address1": "6166 Logan Way",
		"address2": "",
		"city": "Chicago Ridge",
		"state": "IL",
		"postalCode": "60415",
		"salesTax": 0.10,
		"yearToDateBalance": 0.00,
		"nextOrderId": "",
		"latitude": 41.7017,
		"longitude": -87.7774,
		"documentType": "district"
	},
	{
		"districtId": "6ac914b1-af4f-45fe-8e35-683525ae8a08",
		"warehouseId": "711fc3c9-2124-406f-a2a1-e64230584a65",
		"name": "Naperville District",
		"address1": "617 Crest Line Drive",
		"address2": "",
		"city": "Naperville",
		"state": "IL",
		"postalCode": "60564",
		"salesTax": 0.0913,
		"yearToDateBalance": 0.00,
		"nextOrderId": "",
		"latitude": 41.704,
		"longitude": -88.1952,
		"documentType": "district"
	},
	{
		"districtId": "f32ff419-bbff-45cc-a41d-625c81a5935f",
		"warehouseId": "711fc3c9-2124-406f-a2a1-e64230584a65",
		"name": "Oak Lawn District",
		"address1": "2 Shopko Hill",
		"address2": "",
		"city": "Oak Lawn Manor",
		"state": "IL",
		"postalCode": "60454",
		"salesTax": 0.0913,
		"yearToDateBalance": 0.00,
		"nextOrderId": "",
		"latitude": 41.8119,
		"longitude": -87.6873,
		"documentType": "district"
	},
	{
		"districtId": "1fe06f65-1454-4585-bbd3-a08c272e899c",
		"warehouseId": "711fc3c9-2124-406f-a2a1-e64230584a65",
		"name": "Aurora District",
		"address1": "5362 Veith Circle",
		"address2": "",
		"city": "Aurora",
		"state": "IL",
		"postalCode": "60503",
		"salesTax": 0.0913,
		"yearToDateBalance": 0.00,
		"nextOrderId": "",
		"latitude": 41.8397,
		"longitude":  -88.0887,
		"documentType": "district"
	},
	{
		"districtId": "70ae2be9-8ac6-40ac-a6d6-50b77718af0c",
		"warehouseId": "711fc3c9-2124-406f-a2a1-e64230584a65",
		"name": "Evergreen Park District",
		"address1": "8 John Wall Trail",
		"address2": "",
		"city": "Evergreen Park",
		"state": "IL",
		"postalCode": "60805",
		"salesTax": 0.09375,
		"yearToDateBalance": 0.00,
		"nextOrderId": "",
		"latitude": 41.8119,
		"longitude": -87.6873,
		"documentType": "district"
	}
]