[
	{
		"districtId": "9e91169d-0f04-4fd0-88c0-a820a9aeb0fb",
		"warehouseId": "5a7ea984-bd9c-4eb5-a7b1-12c90f3d27c2",
		"name": "Staten Island District",
		"address1": "8704 Pawling Point",
		"address2": "",
		"city": "Staten Island",
		"state": "NY",
		"postalCode": "10307",
		"salesTax": 0.088,
		"yearToDateBalance": 0.00,
		"nextOrderId": "",
		"latitude": 40.6039,
		"longitude": -74.1472,
		"documentType": "district"
	},
	{
		"districtId": "b2c50011-64cc-45fe-881d-db87e61339ed",
		"warehouseId": "5a7ea984-bd9c-4eb5-a7b1-12c90f3d27c2",
		"name": "Rockaway Park District",
		"address1": "76116 Thackeray Trail",
		"address2": "",
		"city": "Rockaway Park",
		"state": "NY",
		"postalCode": "11694",
		"salesTax": 0.0875,
		"yearToDateBalance": 0.00,
		"nextOrderId": "",
		"latitude": 40.5766,
		"longitude": -73.8428,
		"documentType": "district"
	},
	{
		"districtId": "f79473bc-7f75-490b-bb75-392555b8c6b3",
		"warehouseId": "5a7ea984-bd9c-4eb5-a7b1-12c90f3d27c2",
		"name": "Breezy Point District",
		"address1": "7455 Utah Drive",
		"address2": "",
		"city": "Breezy Point",
		"state": "NY",
		"postalCode": "11697",
		"salesTax": 0.0738,
		"yearToDateBalance": 0.00,
		"nextOrderId": "",
		"latitude": 40.5594,
		"longitude": -73.9067,
		"documentType": "district"
	},
	{
		"districtId": "0364add8-270f-4433-a8df-20bb9fee9261",
		"warehouseId": "5a7ea984-bd9c-4eb5-a7b1-12c90f3d27c2",
		"name": "Woodbridge District",
		"address1": "767 Monica Street",
		"address2": "",
		"city": "Woodbridge Beach",
		"state": "NJ",
		"postalCode": "07095",
		"salesTax": 0.085,
		"yearToDateBalance": 0.00,
		"nextOrderId": "",
		"latitude": 40.556,
		"longitude": -74.2845,
		"documentType": "district"
	},
	{
		"districtId": "0c05366f-cbc0-4250-b197-bac5e0d8720f",
		"warehouseId": "5a7ea984-bd9c-4eb5-a7b1-12c90f3d27c2",
		"name": "Sewaren District",
		"address1": "7948 Del Mar Drive",
		"address2": "",
		"city": "Sewaren",
		"state": "NJ",
		"postalCode": "07077",
		"salesTax": 0.075,
		"yearToDateBalance": 0.00,
		"nextOrderId": "",
		"latitude": 40.5542,
		"longitude":  -74.2607,
		"documentType": "district"
	},
	{
		"districtId": "cd4e58f7-a23a-4da1-988a-185d744e15c6",
		"warehouseId": "5a7ea984-bd9c-4eb5-a7b1-12c90f3d27c2",
		"name": "Congers District",
		"address1": "815 Sommers Parkway",
		"address2": "",
		"city": "Congers",
		"state": "NY",
		"postalCode": "10920",
		"salesTax": 0.0838,
		"yearToDateBalance": 0.00,
		"nextOrderId": "",
		"latitude": 41.1487,
		"longitude": -73.9413,
		"documentType": "district"
	},
	{
		"districtId": "f00f55e1-b1d8-4857-9d5b-bb9a768defe0",
		"warehouseId": "5a7ea984-bd9c-4eb5-a7b1-12c90f3d27c2",
		"name": "Suffern District",
		"address1": "53073 Daystar Way",
		"address2": "",
		"city": "Suffern",
		"state": "NY",
		"postalCode": "10901",
		"salesTax": 0.0838,
		"yearToDateBalance": 0.00,
		"nextOrderId": "",
		"latitude": 41.1177,
		"longitude": -74.1241,
		"documentType": "district"
	},
	{
		"districtId": "5a175079-a0fe-4cb9-9fdb-9cb510fa645d",
		"warehouseId": "5a7ea984-bd9c-4eb5-a7b1-12c90f3d27c2",
		"name": "Briarcliff Manor District",
		"address1": "944 Brentwood Park",
		"address2": "",
		"city": "Briarcliff Manor",
		"state": "NY",
		"postalCode": "10510",
		"salesTax": 0.0838,
		"yearToDateBalance": 0.00,
		"nextOrderId": "",
		"latitude": 41.1444,
		"longitude": -73.835,
		"documentType": "district"
	},
	{
		"districtId": "9241aeb7-fc40-42a2-8210-6e00222ab452",
		"warehouseId": "5a7ea984-bd9c-4eb5-a7b1-12c90f3d27c2",
		"name": "Pleasantville District",
		"address1": "1309 Prairie Rose Pass",
		"address2": "",
		"city": "Pleasantville",
		"state": "NY",
		"postalCode": "10570",
		"salesTax": 0.0913,
		"yearToDateBalance": 0.00,
		"nextOrderId": "",
		"latitude": 41.119,
		"longitude":  -73.733,
		"documentType": "district"
	},
	{
		"districtId": "cf0aeddd-2c75-4e4a-9494-1412c0f1a746",
		"warehouseId": "5a7ea984-bd9c-4eb5-a7b1-12c90f3d27c2",
		"name": "Valley Cottage District",
		"address1": "5 Starling Avenue",
		"address2": "",
		"city": "Valley Cottage",
		"state": "NY",
		"postalCode": "10989",
		"salesTax": 0.0838,
		"yearToDateBalance": 0.00,
		"nextOrderId": "",
		"latitude": 41.1183,
		"longitude": -73.943,
		"documentType": "district"
	}
]