[
	{
		"districtId": "48d55ce0-6e38-4940-8cb8-395a9b706644",
		"warehouseId": "d7890874-f4ce-4f35-9cd0-bb1b3d35721b",
		"name": "Castle Rock District",
		"address1": "6518 Darwin Point",
		"address2": "",
		"city": "Castle Rock",
		"state": "CO",
		"postalCode": "80108",
		"salesTax": 0.080,
		"yearToDateBalance": 0.00,
		"nextOrderId": "",
		"latitude": 39.374912,
		"longitude": -104.853859,
		"documentType": "district"
	},
	{
		"districtId": "4e6a8bc2-c672-494b-aca6-10b4d530fbc3",
		"warehouseId": "d7890874-f4ce-4f35-9cd0-bb1b3d35721b",
		"name": "Louviers District",
		"address1": "12 Morrow Court",
		"address2": "",
		"city": "Louviers",
		"state": "CO",
		"postalCode": "80131",
		"salesTax": 0.039,
		"yearToDateBalance": 0.00,
		"nextOrderId": "",
		"latitude": 39.3479,
		"longitude": -104.9947,
		"documentType": "district"
	},
	{
		"districtId": "ffdf6140-59fa-4b8f-8078-02f20d40f8fc",
		"warehouseId": "d7890874-f4ce-4f35-9cd0-bb1b3d35721b",
		"name": "Littleton District",
		"address1": "41 La Follette Hill",
		"address2": "",
		"city": "Littleton",
		"state": "CO",
		"postalCode": "80125",
		"salesTax": 0.0375,
		"yearToDateBalance": 0.00,
		"nextOrderId": "",
		"latitude": 39.3479,
		"longitude": -104.9947,
		"documentType": "district"
	},
	{
		"districtId": "cc6cec4b-fb2e-4971-b62a-f887f3febfa8",
		"warehouseId": "d7890874-f4ce-4f35-9cd0-bb1b3d35721b",
		"name": "Parker District",
		"address1": "6 Pierstorff Circle",
		"address2": "",
		"city": "Parker",
		"state": "CO",
		"postalCode": "80134",
		"salesTax": 0.086,
		"yearToDateBalance": 0.00,
		"nextOrderId": "",
		"latitude": 39.5102,
		"longitude": -104.7216,
		"documentType": "district"
	},
	{
		"districtId": "b93e59d5-e557-455f-9b61-0239562eef6d",
		"warehouseId": "d7890874-f4ce-4f35-9cd0-bb1b3d35721b",
		"name": "Littleton District",
		"address1": "14075 Swallow Terrace",
		"address2": "",
		"city": "Littleton",
		"state": "CO",
		"postalCode": "80127",
		"salesTax": 0.0375,
		"yearToDateBalance": 0.00,
		"nextOrderId": "",
		"latitude": 39.522,
		"longitude":  -105.2239,
		"documentType": "district"
	},
	{
		"districtId": "afe32c60-93a0-45fb-bf87-0c07b51ba2d3",
		"warehouseId": "d7890874-f4ce-4f35-9cd0-bb1b3d35721b",
		"name": "Lone Tree District",
		"address1": "433 Menomonie Center",
		"address2": "",
		"city": "Lone Tree",
		"state": "CO",
		"postalCode": "80126",
		"salesTax": 0.028125,
		"yearToDateBalance": 0.00,
		"nextOrderId": "",
		"latitude": 39.3479,
		"longitude": -104.9947,
		"documentType": "district"
	},
	{
		"districtId": "dea68feb-ce47-47e1-8019-2c0309b11465",
		"warehouseId": "d7890874-f4ce-4f35-9cd0-bb1b3d35721b",
		"name": "Englewood District",
		"address1": "719 Main Drive",
		"address2": "",
		"city": "Englewood",
		"state": "CO",
		"postalCode": "80112",
		"salesTax": 0.070,
		"yearToDateBalance": 0.00,
		"nextOrderId": "",
		"latitude": 39.7388,
		"longitude": -104.4083,
		"documentType": "district"
	},
	{
		"districtId": "e7d36784-4431-4bb0-becb-a60d349bbac6",
		"warehouseId": "d7890874-f4ce-4f35-9cd0-bb1b3d35721b",
		"name": "Aurora District",
		"address1": "78052 Holmberg Center",
		"address2": "",
		"city": "Aurora",
		"state": "CO",
		"postalCode": "80016",
		"salesTax": 0.080,
		"yearToDateBalance": 0.00,
		"nextOrderId": "",
		"latitude": 39.7388,
		"longitude": -104.4083,
		"documentType": "district"
	},
	{
		"districtId": "f9c47667-f24c-404a-877c-9b3103fb9ba3",
		"warehouseId": "d7890874-f4ce-4f35-9cd0-bb1b3d35721b",
		"name": "Morrison District",
		"address1": "275 Novick Court",
		"address2": "",
		"city": "Morrison",
		"state": "CO",
		"postalCode": "80465",
		"salesTax": 0.0825,
		"yearToDateBalance": 0.00,
		"nextOrderId": "",
		"latitude": 39.6125,
		"longitude":  -105.1746,
		"documentType": "district"
	},
	{
		"districtId": "1007e720-a7b6-4d8d-a4d4-b399d561af01",
		"warehouseId": "d7890874-f4ce-4f35-9cd0-bb1b3d35721b",
		"name": "Golden District",
		"address1": "82362 Kings Terrace",
		"address2": "",
		"city": "Golden",
		"state": "CO",
		"postalCode": "80419",
		"salesTax": 0.065,
		"yearToDateBalance": 0.00,
		"nextOrderId": "",
		"latitude": 39.522,
		"longitude": -105.2239,
		"documentType": "district"
	}
]