[
	{
		"districtId": "f80b798d-1e23-4150-bfd1-1c44b3a25023",
		"warehouseId": "f650bba6-8ad4-40a9-a86e-e9c19b43ad96",
		"name": "Renton District",
		"address1": "85 Oakridge Pass",
		"address2": "",
		"city": "Renton",
		"state": "WA",
		"postalCode": "98055",
		"salesTax": 0.101,
		"yearToDateBalance": 0.00,
		"nextOrderId": "",
		"latitude": 47.5058,
		"longitude": -122.1157,
		"documentType": "district"
	},
	{
		"districtId": "5ef42b29-86ca-4561-a3b7-630874182e4f",
		"warehouseId": "f650bba6-8ad4-40a9-a86e-e9c19b43ad96",
		"name": "Seahurst District",
		"address1": "79319 Blackbird Avenue",
		"address2": "",
		"city": "Seahurst",
		"state": "WA",
		"postalCode": "98062",
		"salesTax": 0.101,
		"yearToDateBalance": 0.00,
		"nextOrderId": "",
		"latitude": 47.4323,
		"longitude": -121.8034,
		"documentType": "district"
	},
	{
		"districtId": "cd8bfa59-8fc4-4c0d-aa47-977bf4584328",
		"warehouseId": "f650bba6-8ad4-40a9-a86e-e9c19b43ad96",
		"name": "Southworth District",
		"address1": "5204 Northview Alley",
		"address2": "",
		"city": "Southworth",
		"state": "WA",
		"postalCode": "98386",
		"salesTax": 0.090,
		"yearToDateBalance": 0.00,
		"nextOrderId": "",
		"latitude": 47.5104,
		"longitude": -122.4991,
		"documentType": "district"
	},
	{
		"districtId": "f294705a-5cb2-4866-9473-074ba7361338",
		"warehouseId": "f650bba6-8ad4-40a9-a86e-e9c19b43ad96",
		"name": "South Colby District",
		"address1": "3 Parkside Pass",
		"address2": "",
		"city": "South Colby",
		"state": "WA",
		"postalCode": "98384",
		"salesTax": 0.092,
		"yearToDateBalance": 0.00,
		"nextOrderId": "",
		"latitude": 47.5218,
		"longitude": -122.5396,
		"documentType": "district"
	},
	{
		"districtId": "cb5afc41-1653-4adf-9acc-a3c0df6b5321",
		"warehouseId": "f650bba6-8ad4-40a9-a86e-e9c19b43ad96",
		"name": "Manchester District",
		"address1": "80 Main Lane",
		"address2": "",
		"city": "Manchester",
		"state": "WA",
		"postalCode": "98353",
		"salesTax": 0.0635,
		"yearToDateBalance": 0.00,
		"nextOrderId": "",
		"latitude": 47.5952,
		"longitude":  122.6225,
		"documentType": "district"
	},
	{
		"districtId": "b27df665-88d4-4084-b9b8-b0a42ecb12e7",
		"warehouseId": "f650bba6-8ad4-40a9-a86e-e9c19b43ad96",
		"name": "Retsil District",
		"address1": "890 Spohn Point",
		"address2": "",
		"city": "Retsil",
		"state": "WA",
		"postalCode": "98378",
		"salesTax": 0.065,
		"yearToDateBalance": 0.00,
		"nextOrderId": "",
		"latitude": 47.688,
		"longitude": -122.7293,
		"documentType": "district"
	},
	{
		"districtId": "86bee2bb-700d-4339-b7df-ccdaca24fac7",
		"warehouseId": "f650bba6-8ad4-40a9-a86e-e9c19b43ad96",
		"name": "Port Orchard District",
		"address1": "440 Eagle Crest Place",
		"address2": "",
		"city": "Port Orchard",
		"state": "WA",
		"postalCode": "98366",
		"salesTax": 0.092,
		"yearToDateBalance": 0.00,
		"nextOrderId": "",
		"latitude": 47.4707,
		"longitude": -122.651,
		"documentType": "district"
	},
	{
		"districtId": "588a8550-2a41-4ca2-8001-efcf0db2b331",
		"warehouseId": "f650bba6-8ad4-40a9-a86e-e9c19b43ad96",
		"name": "Bremerton District",
		"address1": "5032 Carberry Circle",
		"address2": "",
		"city": "Bremerton",
		"state": "WA",
		"postalCode": "98314",
		"salesTax": 0.090,
		"yearToDateBalance": 0.00,
		"nextOrderId": "",
		"latitude": 47.5686,
		"longitude": -122.6374,
		"documentType": "district"
	},
	{
		"districtId": "48400974-44cd-4107-9cf7-d60b00175ff9",
		"warehouseId": "f650bba6-8ad4-40a9-a86e-e9c19b43ad96",
		"name": "Bellevue District",
		"address1": "460 Scott Parkway",
		"address2": "",
		"city": "Bellevue Park",
		"state": "WA",
		"postalCode": "98006",
		"salesTax": 0.0725,
		"yearToDateBalance": 0.00,
		"nextOrderId": "",
		"latitude": 47.4323,
		"longitude":  -121.8034,
		"documentType": "district"
	},
	{
		"districtId": "dfd4ea38-c50a-48a9-8aec-1a447e397a42",
		"warehouseId": "f650bba6-8ad4-40a9-a86e-e9c19b43ad96",
		"name": "Mercer Island District",
		"address1": "813 Sunnyside Lane",
		"address2": "",
		"city": "Mercer Island",
		"state": "WA",
		"postalCode": "98040",
		"salesTax": 0.101,
		"yearToDateBalance": 0.00,
		"nextOrderId": "",
		"latitude": 47.5602,
		"longitude": -122.2281,
		"documentType": "district"
	}
]