[
	{
		"districtId": "497f2751-9740-40e2-b59c-b873c0b7a44b",
		"warehouseId": "c7187f89-a11d-44f8-9f00-2385cd1a22d6",
		"name": "Freeman District",
		"address1": "2581 Commercial Avenue",
		"address2": "",
		"city": "Freeman",
		"state": "MO",
		"postalCode": "64746",
		"salesTax": 0.065,
		"yearToDateBalance": 0.00,
		"nextOrderId": "",
		"latitude": 38.6245,
		"longitude": -94.4956,
		"documentType": "district"
	},
	{
		"districtId": "20b1abfb-bc14-4ae9-bb64-25e066241527",
		"warehouseId": "073ab6ef-27c7-4176-ae53-5cf27ac5fd0e",
		"name": "Louisburg District",
		"address1": "27 Arizona Road",
		"address2": "",
		"city": "Louisburg",
		"state": "KS",
		"postalCode": "66053",
		"salesTax": 0.095,
		"yearToDateBalance": 0.00,
		"nextOrderId": "",
		"latitude": 38.6073,
		"longitude": -94.6829,
		"documentType": "district"
	},
	{
		"districtId": "408b2761-b166-4270-b4bd-a56c28128133",
		"warehouseId": "073ab6ef-27c7-4176-ae53-5cf27ac5fd0e",
		"name": "Harrisonville District",
		"address1": "412 Farwell Avenue",
		"address2": "",
		"city": "Harrisonville",
		"state": "MO",
		"postalCode": "64701",
		"salesTax": 0.0725,
		"yearToDateBalance": 0.00,
		"nextOrderId": "",
		"latitude": 38.6419,
		"longitude": -94.3285,
		"documentType": "district"
	},
	{
		"districtId": "da875ccf-5307-44a1-a5ae-a5a0ad5fd44f",
		"warehouseId": "073ab6ef-27c7-4176-ae53-5cf27ac5fd0e",
		"name": "Cleveland District",
		"address1": "58 Talmadge Park",
		"address2": "",
		"city": "Cleveland",
		"state": "MO",
		"postalCode": "64734",
		"salesTax": 0.070,
		"yearToDateBalance": 0.00,
		"nextOrderId": "",
		"latitude": 38.6898,
		"longitude": -94.5695,
		"documentType": "district"
	},
	{
		"districtId": "98e594ed-8f2e-4a94-bec2-2cb78293a50d",
		"warehouseId": "073ab6ef-27c7-4176-ae53-5cf27ac5fd0e",
		"name": "Hillsdale District",
		"address1": "555 Spohn Street",
		"address2": "",
		"city": "Hillsdale",
		"state": "KS",
		"postalCode": "66036",
		"salesTax": 0.080,
		"yearToDateBalance": 0.00,
		"nextOrderId": "",
		"latitude": 38.6581,
		"longitude":  -94.8521,
		"documentType": "district"
	},
	{
		"districtId": "83a77d60-d19d-44b7-8971-c176b8a3dd4f",
		"warehouseId": "073ab6ef-27c7-4176-ae53-5cf27ac5fd0e",
		"name": "East Lynne District",
		"address1": "9554 Harper Plaza",
		"address2": "",
		"city": "East Lynne Tree",
		"state": "MO",
		"postalCode": "64743",
		"salesTax": 0.0736,
		"yearToDateBalance": 0.00,
		"nextOrderId": "",
		"latitude": 38.6682,
		"longitude": -94.2333,
		"documentType": "district"
	},
	{
		"districtId": "93b7c250-400f-458e-8d19-317f27bae3f3",
		"warehouseId": "073ab6ef-27c7-4176-ae53-5cf27ac5fd0e",
		"name": "Peculiar District",
		"address1": "499 Trailsway Point",
		"address2": "",
		"city": "Peculiar",
		"state": "MO",
		"postalCode": "64078",
		"salesTax": 0.08850,
		"yearToDateBalance": 0.00,
		"nextOrderId": "",
		"latitude": 38.7165,
		"longitude": -94.4405,
		"documentType": "district"
	},
	{
		"districtId": "0c1ba02c-f05b-4cd7-8720-449e5a65daac",
		"warehouseId": "073ab6ef-27c7-4176-ae53-5cf27ac5fd0e",
		"name": "Bucyrus District",
		"address1": "2 Straubel Terrace",
		"address2": "",
		"city": "Bucyrus",
		"state": "KS",
		"postalCode": "66013",
		"salesTax": 0.0725,
		"yearToDateBalance": 0.00,
		"nextOrderId": "",
		"latitude":  38.6761,
		"longitude": -94.6851,
		"documentType": "district"
	},
	{
		"districtId": "e6e560cf-930f-4585-9a2b-2f2531ff8826",
		"warehouseId": "073ab6ef-27c7-4176-ae53-5cf27ac5fd0e",
		"name": "Spring Hill District",
		"address1": "5 Warner Hill",
		"address2": "",
		"city": "Spring Hill",
		"state": "KS",
		"postalCode": "66083",
		"salesTax": 0.09475,
		"yearToDateBalance": 0.00,
		"nextOrderId": "",
		"latitude": 38.7631,
		"longitude":  -94.8246,
		"documentType": "district"
	},
	{
		"districtId": "6694c3d9-6c4d-4054-908b-c0a6acee5b81",
		"warehouseId": "073ab6ef-27c7-4176-ae53-5cf27ac5fd0e",
		"name": "Strasburg District",
		"address1": "2626 Red Cloud Trail",
		"address2": "",
		"city": "Strasburg Park",
		"state": "MO",
		"postalCode": "64090",
		"salesTax": 0.0736,
		"yearToDateBalance": 0.00,
		"nextOrderId": "",
		"latitude": 38.7658,
		"longitude": -94.1609,
		"documentType": "district"
	}
]