[
	{
		"districtId": "6ecb396e-1a52-48af-9cf8-2f8dc3ede1d2",
		"warehouseId": "73c56048-2a67-4ae6-aaa7-12ff3f94eb8f",
		"name": "Jacksonville Beach District",
		"address1": "6 Manitowish Street",
		"address2": "",
		"city": "Jacksonville Beach",
		"state": "FL",
		"postalCode": "32250",
		"salesTax": 0.090,
		"yearToDateBalance": 0.00,
		"nextOrderId": "",
		"latitude": 30.2801,
		"longitude": -81.4165,
		"documentType": "district"
	},
	{
		"districtId": "6f0399ca-051f-46fb-b0e2-80a6b5eb32f9",
		"warehouseId": "73c56048-2a67-4ae6-aaa7-12ff3f94eb8f",
		"name": "Neptune Beach District",
		"address1": "10661 Armistice Place",
		"address2": "",
		"city": "Neptune Beach",
		"state": "FL",
		"postalCode": "32266",
		"salesTax": 0.075,
		"yearToDateBalance": 0.00,
		"nextOrderId": "",
		"latitude": 30.3155,
		"longitude": -81.4051,
		"documentType": "district"
	},
	{
		"districtId": "75a64ab5-7240-42ca-9871-3d7b9f430c69",
		"warehouseId": "73c56048-2a67-4ae6-aaa7-12ff3f94eb8f",
		"name": "Callahan District",
		"address1": "7 Kinsman Avenue",
		"address2": "",
		"city": "Callahan",
		"state": "FL",
		"postalCode": "32011",
		"salesTax": 0.0913,
		"yearToDateBalance": 0.00,
		"nextOrderId": "",
		"latitude": 30.552,
		"longitude": -81.8145,
		"documentType": "district"
	},
	{
		"districtId": "057381f5-84cd-431f-b76a-8ce650839eee",
		"warehouseId": "73c56048-2a67-4ae6-aaa7-12ff3f94eb8f",
		"name": "Fernandina Beach District",
		"address1": "9580 Daystar Street",
		"address2": "",
		"city": "Fernandina Beach",
		"state": "FL",
		"postalCode": "32034",
		"salesTax": 0.09125,
		"yearToDateBalance": 0.00,
		"nextOrderId": "",
		"latitude": 30.5516,
		"longitude": -81.6984,
		"documentType": "district"
	},
	{
		"districtId": "692bfbb5-cd03-4b9d-a3c8-b9ff63f2158c",
		"warehouseId": "73c56048-2a67-4ae6-aaa7-12ff3f94eb8f",
		"name": "Yulee District",
		"address1": "47050 Dixon Alley",
		"address2": "",
		"city": "Yulee",
		"state": "FL",
		"postalCode": "32041",
		"salesTax": 0.0938,
		"yearToDateBalance": 0.00,
		"nextOrderId": "",
		"latitude": 30.6222,
		"longitude":  -81.5906,
		"documentType": "district"
	},
	{
		"districtId": "2a9f8163-e3ec-4ac4-94b4-042731dc9626",
		"warehouseId": "73c56048-2a67-4ae6-aaa7-12ff3f94eb8f",
		"name": "Fernandina Beach District",
		"address1": "368 Sunfield Pass",
		"address2": "",
		"city": "Fernandina Beach",
		"state": "FL",
		"postalCode": "32035",
		"salesTax": 0.0900,
		"yearToDateBalance": 0.00,
		"nextOrderId": "",
		"latitude": 30.5516,
		"longitude": -81.6984,
		"documentType": "district"
	},
	{
		"districtId": "e75a9ad8-2955-4e27-b608-d7bfcce50030",
		"warehouseId": "73c56048-2a67-4ae6-aaa7-12ff3f94eb8f",
		"name": "Kings Bay District",
		"address1": "97739 Thompson Way",
		"address2": "",
		"city": "Kings Bay",
		"state": "GA",
		"postalCode": "31547",
		"salesTax": 0.0913,
		"yearToDateBalance": 0.00,
		"nextOrderId": "",
		"latitude": 30.8047,
		"longitude": -81.6277,
		"documentType": "district"
	},
	{
		"districtId": "4c94a8a7-d372-4536-8534-6a2812acca92",
		"warehouseId": "73c56048-2a67-4ae6-aaa7-12ff3f94eb8f",
		"name": "Kingsland District",
		"address1": "7 Golden Leaf Circle",
		"address2": "",
		"city": "Kingsland",
		"state": "GA",
		"postalCode": "31548",
		"salesTax": 0.0913,
		"yearToDateBalance": 0.00,
		"nextOrderId": "",
		"latitude": 30.7977,
		"longitude": -81.7075,
		"documentType": "district"
	},
	{
		"districtId": "78c470d3-776b-4de5-b379-e47fa0c886b6",
		"warehouseId": "73c56048-2a67-4ae6-aaa7-12ff3f94eb8f",
		"name": "Woodbine District",
		"address1": "38383 Leroy Pass",
		"address2": "",
		"city": "Woodbine",
		"state": "GA",
		"postalCode": "31569",
		"salesTax": 0.0913,
		"yearToDateBalance": 0.00,
		"nextOrderId": "",
		"latitude": 30.9437,
		"longitude":  -81.6783,
		"documentType": "district"
	},
	{
		"districtId": "688145fe-693e-48f1-bd9e-31c40f8fd51e",
		"warehouseId": "73c56048-2a67-4ae6-aaa7-12ff3f94eb8f",
		"name": "Saint Marys District",
		"address1": "1 Prairie Rose Circle",
		"address2": "",
		"city": "Saint Marys",
		"state": "GA",
		"postalCode": "31558",
		"salesTax": 0.09375,
		"yearToDateBalance": 0.00,
		"nextOrderId": "",
		"latitude": 30.7735,
		"longitude": -81.5652,
		"documentType": "district"
	}
]