[
	{
		"districtId": "48456b7e-8ac1-4b8e-be13-22b973c3c1bb",
		"warehouseId": "4d0d7c69-a380-4db1-941c-8f4348aa62e8",
		"name": "Concordville District",
		"address1": "668 Stang Court",
		"address2": "",
		"city": "Concordville",
		"state": "PA",
		"postalCode": "19331",
		"salesTax": 0.060,
		"yearToDateBalance": 0.00,
		"nextOrderId": "",
		"latitude": 39.934,
		"longitude": -75.406,
		"documentType": "district"
	},
	{
		"districtId": "5ab4b6d3-67ef-44aa-831f-8742f4daf3e6",
		"warehouseId": "d7890874-f4ce-4f35-9cd0-bb1b3d35721b",
		"name": "Norwood District",
		"address1": "28 Macpherson Terrace",
		"address2": "",
		"city": "Norwood",
		"state": "PA",
		"postalCode": "19074",
		"salesTax": 0.078,
		"yearToDateBalance": 0.00,
		"nextOrderId": "",
		"latitude": 39.887,
		"longitude": -75.2972,
		"documentType": "district"
	},
	{
		"districtId": "6ee4ced9-76ed-4120-ba87-aca8cadc8e58",
		"warehouseId": "d7890874-f4ce-4f35-9cd0-bb1b3d35721b",
		"name": "Prospect Park District",
		"address1": "8 Dakota Point",
		"address2": "",
		"city": "Prospect Park",
		"state": "PA",
		"postalCode": "19076",
		"salesTax": 0.060,
		"yearToDateBalance": 0.00,
		"nextOrderId": "",
		"latitude": 39.8857,
		"longitude": -75.3082,
		"documentType": "district"
	},
	{
		"districtId": "1f6e5e2f-445d-47ab-8791-23a1b9638e2f",
		"warehouseId": "d7890874-f4ce-4f35-9cd0-bb1b3d35721b",
		"name": "Wallingford District",
		"address1": "6241 Ilene Place",
		"address2": "",
		"city": "Wallingford",
		"state": "PA",
		"postalCode": "19086",
		"salesTax": 0.0635,
		"yearToDateBalance": 0.00,
		"nextOrderId": "",
		"latitude": 39.8871,
		"longitude": -75.3721,
		"documentType": "district"
	},
	{
		"districtId": "8f5b0f83-602d-4e87-81da-c9fe5e5b4395",
		"warehouseId": "d7890874-f4ce-4f35-9cd0-bb1b3d35721b",
		"name": "Folsom District",
		"address1": "7 Ryan Drive",
		"address2": "",
		"city": "Folsom",
		"state": "PA",
		"postalCode": "19033",
		"salesTax": 0.0775,
		"yearToDateBalance": 0.00,
		"nextOrderId": "",
		"latitude": 39.8901,
		"longitude":  -75.3296,
		"documentType": "district"
	},
	{
		"districtId": "ddba7b6e-cfb7-4750-b8e5-82639b051d6b",
		"warehouseId": "d7890874-f4ce-4f35-9cd0-bb1b3d35721b",
		"name": "Folcroft District",
		"address1": "2069 Anzinger Trail",
		"address2": "",
		"city": "Folcroft Tree",
		"state": "PA",
		"postalCode": "19032",
		"salesTax": 0.080,
		"yearToDateBalance": 0.00,
		"nextOrderId": "",
		"latitude": 39.8905,
		"longitude": -75.2821,
		"documentType": "district"
	},
	{
		"districtId": "e9f09038-6af4-49a2-a6bc-8911eb7832b7",
		"warehouseId": "d7890874-f4ce-4f35-9cd0-bb1b3d35721b",
		"name": "Chester Heights District",
		"address1": "40 Maple Terrace",
		"address2": "",
		"city": "Chester Heights",
		"state": "PA",
		"postalCode": "19017",
		"salesTax": 0.060,
		"yearToDateBalance": 0.00,
		"nextOrderId": "",
		"latitude":  39.8839,
		"longitude": -75.4669,
		"documentType": "district"
	},
	{
		"districtId": "ec9551a1-696d-4854-8951-c7803d3003c9",
		"warehouseId": "d7890874-f4ce-4f35-9cd0-bb1b3d35721b",
		"name": "Swarthmore District",
		"address1": "3746 Prairie Rose Street",
		"address2": "",
		"city": "Swarthmore",
		"state": "PA",
		"postalCode": "19081",
		"salesTax": 0.080,
		"yearToDateBalance": 0.00,
		"nextOrderId": "",
		"latitude": 39.8967,
		"longitude": -75.3474,
		"documentType": "district"
	},
	{
		"districtId": "2f3d3c96-536d-4cc1-8855-f65af9901ccf",
		"warehouseId": "d7890874-f4ce-4f35-9cd0-bb1b3d35721b",
		"name": "Sharon Hill District",
		"address1": "16 8th Hill",
		"address2": "",
		"city": "Sharon Hill",
		"state": "PA",
		"postalCode": "19079",
		"salesTax": 0.080,
		"yearToDateBalance": 0.00,
		"nextOrderId": "",
		"latitude": 39.9035,
		"longitude":  -75.2695,
		"documentType": "district"
	},
	{
		"districtId": "16bda20d-7fc6-4455-bdf6-bcd1601c786b",
		"warehouseId": "d7890874-f4ce-4f35-9cd0-bb1b3d35721b",
		"name": "Edgemont District",
		"address1": "46 Sutteridge Circle",
		"address2": "",
		"city": "Edgemont",
		"state": "PA",
		"postalCode": "19028",
		"salesTax": 0.065,
		"yearToDateBalance": 0.00,
		"nextOrderId": "",
		"latitude": 39.934,
		"longitude": -75.406,
		"documentType": "district"
	}
]